[
    {
        "siret": "84392249300013",
        "name": "CORETECH",
        "category": "Transporteur",
        "latitude": "48.891059",
        "longitude": "2.331283"
    },
    {
        "siret": "81343950200028",
        "name": "FRONTIER SAS",
        "category": "Installation de traitement",
        "latitude": "48.88404",
        "longitude": "2.350894"
    },
    {
        "siret": "13001045700013",
        "name": "DIRECTION REGIONALE DE L'ENVIRONNEMENT DE L'AMENAGEMENT ET DU LOGEMENT NOUVELLE-AQUITAINE",
        "category": "Installation de traitement",
        "latitude": "46.582494",
        "longitude": "0.337234"
    },
    {
        "siret": "83390775100014",
        "name": "RADIOACTIV'IT",
        "category": "Producteur",
        "latitude": "43.617416",
        "longitude": "7.050683"
    },
    {
        "siret": "44949627200021",
        "name": "CAPIO RHONE-ALPES",
        "category": "Producteur",
        "latitude": "45.775909",
        "longitude": "4.859378"
    },
    {
        "siret": "38893526400340",
        "name": "SUEZ RR IWS",
        "category": "Installation de traitement",
        "latitude": "48.889004",
        "longitude": "2.249478"
    },
    {
        "siret": "31524980500146",
        "name": "SCORI",
        "category": "Installation de traitement",
        "latitude": "50.445558",
        "longitude": "2.616237"
    },
    {
        "siret": "30377298200029",
        "name": "SARP INDUSTRIES",
        "category": "Installation de traitement",
        "latitude": "48.975773",
        "longitude": "1.751122"
    },
    {
        "siret": "33803085100046",
        "name": "GENEVE OCCASION",
        "category": "Producteur",
        "latitude": "46.304421",
        "longitude": "-0.46004"
    },
    {
        "siret": "55685027900051",
        "name": "SECHE ALLIANCE",
        "category": "Installation de traitement",
        "latitude": "48.10388",
        "longitude": "-0.801995"
    },
    {
        "siret": "77573481700395",
        "name": "SOC ASSAINISSEMENT RATIONNEL ET POMPAGE",
        "category": "Producteur",
        "latitude": "48.894965",
        "longitude": "2.226339"
    },
    {
        "siret": "02578032100052",
        "name": "CARRIERES KLEBER MOREAU",
        "category": "Producteur",
        "latitude": "46.529973",
        "longitude": "-0.321485"
    },
    {
        "siret": "49402440900216",
        "name": "GAIA",
        "category": "Producteur",
        "latitude": "45.815901",
        "longitude": "-0.767475"
    },
    {
        "siret": "25170190000036",
        "name": "SYNDICAT MIXTE CYCLAD",
        "category": "Producteur",
        "latitude": "46.112228",
        "longitude": "-0.76041"
    },
    {
        "siret": "34103985700337",
        "name": "SARP SUD-OUEST",
        "category": "Collecteur-regroupeur",
        "latitude": "45.955731",
        "longitude": "-0.537603"
    },
    {
        "siret": "33004291200031",
        "name": "CARROSSERIE  INDUSTRIELLE NIORTAISE",
        "category": "Producteur",
        "latitude": "46.30894",
        "longitude": "-0.490295"
    },
    {
        "siret": "18170003000016",
        "name": "CHAMBRE DE COMMERCE ET D'INDUSTRIE DE ROCHEFORT ET DE SAINTONGE",
        "category": "Producteur",
        "latitude": "45.941315",
        "longitude": "-0.956065"
    },
    {
        "siret": "13000657000019",
        "name": "DIRECTION REGIONALE DE L'ENVIRONNEMENT DE L'AMENAGEMENT ET DU LOGEMENT HAUTS-DE-FRANCE",
        "category": "Installation de traitement",
        "latitude": "50.634134",
        "longitude": "3.073542"
    },
    {
        "siret": "13000930100016",
        "name": "DIRECTION REGIONALE DE L'ENVIRONNEMENT DE L'AMENAGEMENT ET DU LOGEMENT CENTRE-VAL DE LOIRE",
        "category": "Installation de traitement",
        "latitude": "47.826023",
        "longitude": "1.937769"
    },
    {
        "siret": "42126440900028",
        "name": "DISLAUB",
        "category": "Installation de traitement",
        "latitude": "48.2264",
        "longitude": "4.132859"
    },
    {
        "siret": "34804072600013",
        "name": "SOC FORCE VAR",
        "category": "Collecteur-regroupeur",
        "latitude": "43.473533",
        "longitude": "6.739266"
    },
    {
        "siret": "42383789700044",
        "name": "LUMIVER",
        "category": "Installation de traitement",
        "latitude": "50.54565",
        "longitude": "3.048158"
    },
    {
        "siret": "32914285500025",
        "name": "METAUX 116 SOREVO ENVIRONNEMENT",
        "category": "Installation de traitement",
        "latitude": "49.038394",
        "longitude": "2.223552"
    },
    {
        "siret": "45123963600033",
        "name": "REMONDIS ELECTRORECYCLING SAS",
        "category": "Installation de traitement",
        "latitude": "48.221435",
        "longitude": "4.133346"
    },
    {
        "siret": "43276414000138",
        "name": "PAPREC D3E",
        "category": "Installation de traitement",
        "latitude": "44.765878",
        "longitude": "-0.718045"
    },
    {
        "siret": "39150723300040",
        "name": "ECO VALOR",
        "category": "Installation de traitement",
        "latitude": "49.306321",
        "longitude": "2.577679"
    },
    {
        "siret": "44255070300023",
        "name": "AUTOECO",
        "category": "Collecteur-regroupeur",
        "latitude": "49.419205",
        "longitude": "2.825987"
    },
    {
        "siret": "44540215900039",
        "name": "TERECOVAL",
        "category": "Installation de traitement",
        "latitude": null,
        "longitude": null
    },
    {
        "siret": "49213009100019",
        "name": "SAS FRIGOPOLIS",
        "category": "Installation de traitement",
        "latitude": "43.630542",
        "longitude": "1.482484"
    },
    {
        "siret": "92722044200085",
        "name": "GURDEBEKE SA",
        "category": "Installation de traitement",
        "latitude": "49.577877",
        "longitude": "3.001683"
    },
    {
        "siret": "53743318700102",
        "name": "CARRIERES ET MATERIAUX DU GRAND OUEST",
        "category": "Producteur",
        "latitude": "46.671241",
        "longitude": "-0.169616"
    },
    {
        "siret": "52531009000010",
        "name": "MUSCINESI BOUTEILLE RECYCLAGE",
        "category": "Installation de traitement",
        "latitude": "43.442571",
        "longitude": "5.241377"
    },
    {
        "siret": "37835707300014",
        "name": "SARL GUY DENGASC ET FILS",
        "category": "Collecteur-regroupeur",
        "latitude": "43.811473",
        "longitude": "1.733563"
    },
    {
        "siret": "44366882700043",
        "name": "RECYCLING SYSTEM BOX",
        "category": "Installation de traitement",
        "latitude": "46.074625",
        "longitude": "6.347735"
    },
    {
        "siret": "44360554800066",
        "name": "KERLOG",
        "category": "Producteur",
        "latitude": "48.512329",
        "longitude": "-2.76529"
    },
    {
        "siret": "77572139200360",
        "name": "SEVIA",
        "category": "Installation de traitement",
        "latitude": "48.95069",
        "longitude": "1.92798"
    },
    {
        "siret": "48774196900033",
        "name": "ECOLOGIC",
        "category": "Installation de traitement",
        "latitude": "48.78692",
        "longitude": "2.050095"
    },
    {
        "siret": "47898966800023",
        "name": "COLGATE-PALMOLIVE INDUSTRIEL",
        "category": "Producteur",
        "latitude": "49.429065",
        "longitude": "2.839045"
    },
    {
        "siret": "55201258500170",
        "name": "SGD S.A.",
        "category": "Producteur",
        "latitude": "50.065522",
        "longitude": "1.472591"
    },
    {
        "siret": "34269631700011",
        "name": "FINSA FRANCE SAS",
        "category": "Producteur",
        "latitude": "44.018109",
        "longitude": "-0.894619"
    },
    {
        "siret": "32987901900035",
        "name": "VM AUTOMATERIELS",
        "category": "Collecteur-regroupeur",
        "latitude": "46.212629",
        "longitude": "-0.989715"
    },
    {
        "siret": "55214412300031",
        "name": "TETRA PAK CLOSURES FRANCE SAS",
        "category": "Producteur",
        "latitude": "47.705262",
        "longitude": "-1.382549"
    },
    {
        "siret": "92582007800010",
        "name": "BIC RASOIRS",
        "category": "Producteur",
        "latitude": "49.314575",
        "longitude": "2.721745"
    },
    {
        "siret": "56980189700616",
        "name": "KSB SAS",
        "category": "Producteur",
        "latitude": null,
        "longitude": null
    },
    {
        "siret": "48362308800042",
        "name": "WEYLCHEM LAMOTTE",
        "category": "Producteur",
        "latitude": "49.404313",
        "longitude": "3.000177"
    },
    {
        "siret": "32718049300014",
        "name": "SATECO",
        "category": "Producteur",
        "latitude": "45.7705982",
        "longitude": "5.0269111"
    },
    {
        "siret": "39846750600026",
        "name": "B T V A",
        "category": "Producteur",
        "latitude": "44.986163",
        "longitude": "-0.060152"
    },
    {
        "siret": "50171941300046",
        "name": "GASCOGNE BOIS",
        "category": "Producteur",
        "latitude": "43.874284",
        "longitude": "-1.136862"
    },
    {
        "siret": "42110670900569",
        "name": "SCHNEIDER ELECTRIC FRANCE",
        "category": "Producteur",
        "latitude": "45.671034",
        "longitude": "0.194856"
    },
    {
        "siret": "39980202400139",
        "name": "BRICARD",
        "category": "Producteur",
        "latitude": "50.066928",
        "longitude": "1.608418"
    },
    {
        "siret": "49935990900029",
        "name": "ARTOS",
        "category": "Collecteur-regroupeur",
        "latitude": null,
        "longitude": null
    },
    {
        "siret": "80838077800015",
        "name": "TECUMSEH BARENTIN",
        "category": "Producteur",
        "latitude": "49.547334",
        "longitude": "0.943376"
    },
    {
        "siret": "41096483700026",
        "name": "VERMILION REP SAS",
        "category": "Producteur",
        "latitude": "44.335387",
        "longitude": "-1.087235"
    },
    {
        "siret": "30515177100048",
        "name": "INITIATIVES DECORATION",
        "category": "Producteur",
        "latitude": "45.95957",
        "longitude": "-0.961227"
    },
    {
        "siret": "53051270600017",
        "name": "NEW RAW MATERIALS",
        "category": "Installation de traitement",
        "latitude": "47.958684",
        "longitude": "6.450003"
    },
    {
        "siret": "53868438200012",
        "name": "ASS SPORTIVE DES CAVALIERS DE JOUR ET NUIT",
        "category": "Producteur",
        "latitude": "49.649038",
        "longitude": "1.140094"
    },
    {
        "siret": "39092249000011",
        "name": "WELDOM",
        "category": "Producteur",
        "latitude": "49.37884",
        "longitude": "2.443209"
    },
    {
        "siret": "98552031100012",
        "name": "RAMONDIN FRANCE",
        "category": "Producteur",
        "latitude": "43.690072",
        "longitude": "-1.328831"
    },
    {
        "siret": "77568845002033",
        "name": "CONSEIL NATIONAL PROFESSIONS AUTOMOBILE",
        "category": "Producteur",
        "latitude": "48.878169",
        "longitude": "2.231958"
    },
    {
        "siret": "38408141000035",
        "name": "CHIMIE MACHINES SERVICES HIGH TECH",
        "category": "Installation de traitement",
        "latitude": null,
        "longitude": null
    },
    {
        "siret": "42074322100046",
        "name": "CONDAT",
        "category": "Producteur",
        "latitude": "45.127021",
        "longitude": "1.22569"
    },
    {
        "siret": "33376017100012",
        "name": "STE FRANCAISE GALVANOPLASTIE",
        "category": "Producteur",
        "latitude": "50.131528",
        "longitude": "2.172565"
    },
    {
        "siret": "30401281800049",
        "name": "FLOW CONTROL TECHNOLOGIES",
        "category": "Producteur",
        "latitude": "43.948342",
        "longitude": "2.204217"
    },
    {
        "siret": "33405518300035",
        "name": "SECHE ECO INDUSTRIES",
        "category": "Installation de traitement",
        "latitude": "48.10388",
        "longitude": "-0.801995"
    },
    {
        "siret": "38454528100030",
        "name": "TRIADIS SERVICES",
        "category": "Installation de traitement",
        "latitude": "46.578855",
        "longitude": "5.44193"
    },
    {
        "siret": "31988527300023",
        "name": "",
        "category": "Collecteur-regroupeur",
        "latitude": "47.723331",
        "longitude": "-3.388148"
    },
    {
        "siret": "82102975800017",
        "name": "",
        "category": "Installation de traitement",
        "latitude": "-20.938758",
        "longitude": "55.328164"
    },
    {
        "siret": "31055272400026",
        "name": "SA ELECTRODEPOSITION",
        "category": "Producteur",
        "latitude": "48.913601",
        "longitude": "2.197368"
    },
    {
        "siret": "42192827600045",
        "name": "ENT. PERAUDEAU-DURBECQ",
        "category": "Producteur",
        "latitude": "46.857615",
        "longitude": "-1.866293"
    },
    {
        "siret": "48525469200018",
        "name": "SOLAMAT-MEREX",
        "category": "Installation de traitement",
        "latitude": "43.49606",
        "longitude": "5.214412"
    },
    {
        "siret": "34278683700027",
        "name": "SCHIEVER DISTRIBUTION",
        "category": "Collecteur-regroupeur",
        "latitude": "47.494597",
        "longitude": "3.925001"
    },
    {
        "siret": "78466864200019",
        "name": "FEDERATION FRANCAISE DU BATIMENT",
        "category": "Producteur",
        "latitude": "48.869385",
        "longitude": "2.292145"
    },
    {
        "siret": "38845773100031",
        "name": "SAGE DRS",
        "category": "Collecteur-regroupeur",
        "latitude": "48.999931",
        "longitude": "1.67501"
    },
    {
        "siret": "31245611400031",
        "name": "CENTRE DE DEPOLLUTION INDUS LORRAIN",
        "category": "Installation de traitement",
        "latitude": "49.241486",
        "longitude": "6.133137"
    },
    {
        "siret": "41958560900011",
        "name": "",
        "category": "Producteur",
        "latitude": "48.110824",
        "longitude": "5.11708"
    },
    {
        "siret": "44460844213631",
        "name": "ENEDIS",
        "category": "Producteur",
        "latitude": "48.890455",
        "longitude": "2.246042"
    },
    {
        "siret": "38967501800029",
        "name": "ORTEC ENVIRONNEMENT",
        "category": "Installation de traitement",
        "latitude": "43.477484",
        "longitude": "5.37481"
    },
    {
        "siret": "53035811800012",
        "name": "E & S CHIMIE",
        "category": "Producteur",
        "latitude": "49.268688",
        "longitude": "1.044114"
    },
    {
        "siret": "49343990500073",
        "name": "FDG GROUP",
        "category": "Producteur",
        "latitude": "46.656036",
        "longitude": "0.369838"
    },
    {
        "siret": "33305028400186",
        "name": "PAPREC FRANCE",
        "category": "Installation de traitement",
        "latitude": "48.876354",
        "longitude": "2.311773"
    },
    {
        "siret": "41472962400018",
        "name": "DUBOURG AUTOMOBILES",
        "category": "Producteur",
        "latitude": "44.777446",
        "longitude": "-0.116714"
    },
    {
        "siret": "38348263500588",
        "name": "AFM RECYCLAGE",
        "category": "Collecteur-regroupeur",
        "latitude": "46.823242",
        "longitude": "0.533144"
    },
    {
        "siret": "53488446500012",
        "name": "EASY LEVAGE ET VALORISATION",
        "category": "Collecteur-regroupeur",
        "latitude": "45.726301",
        "longitude": "5.237684"
    },
    {
        "siret": "46020064500022",
        "name": "L ELECTROLYSE",
        "category": "Installation de traitement",
        "latitude": null,
        "longitude": null
    },
    {
        "siret": "44360554800041",
        "name": "",
        "category": "Collecteur-regroupeur",
        "latitude": "48.869078",
        "longitude": "2.155522"
    },
    {
        "siret": "38348263500232",
        "name": "AFM RECYCLAGE",
        "category": "Collecteur-regroupeur",
        "latitude": "44.771396",
        "longitude": "-0.52461"
    },
    {
        "siret": "84812700700013",
        "name": "WASTEBOX FRANCE",
        "category": "Transporteur",
        "latitude": "48.889287",
        "longitude": "2.24075"
    },
    {
        "siret": "43476328000022",
        "name": "VALORIDEC BTP",
        "category": "Installation de traitement",
        "latitude": "43.198019",
        "longitude": "2.41412"
    },
    {
        "siret": "64080189000024",
        "name": "SOCIETE TRAITEMENT CHIMIQUE METAUX",
        "category": "Installation de traitement",
        "latitude": "48.161106",
        "longitude": "2.049005"
    },
    {
        "siret": "63672012000105",
        "name": "ENTREPRISE MARC SA",
        "category": "Collecteur-regroupeur",
        "latitude": "48.418265",
        "longitude": "-4.466115"
    },
    {
        "siret": "40337839100011",
        "name": "GOUIN*LAURENT/",
        "category": "Collecteur-regroupeur",
        "latitude": "46.294398",
        "longitude": "-0.418944"
    },
    {
        "siret": "90635018600043",
        "name": "SOC MONTERELAISE ASSAINISSEM BUFFETEAU",
        "category": "Installation de traitement",
        "latitude": "48.384583",
        "longitude": "2.963427"
    },
    {
        "siret": "85001946400013",
        "name": "CODE EN STOCK",
        "category": "Collecteur-regroupeur",
        "latitude": "43.300746",
        "longitude": "5.387141"
    },
    {
        "siret": "52147258900022",
        "name": "PERFEST CONSEIL",
        "category": "Collecteur-regroupeur",
        "latitude": "48.640784",
        "longitude": "4.94688"
    },
    {
        "siret": "37940691100014",
        "name": "THEOBALD AUTOMOBILES",
        "category": "Producteur",
        "latitude": "49.36297",
        "longitude": "6.200985"
    },
    {
        "siret": "34305695800048",
        "name": "JOHNSON CONTROLS INDUSTRIES",
        "category": "Producteur",
        "latitude": "47.268192",
        "longitude": "-1.487849"
    },
    {
        "siret": "33105490800024",
        "name": "BERN ETIC SARL",
        "category": "Producteur",
        "latitude": "47.951022",
        "longitude": "-3.386988"
    },
    {
        "siret": "42886506700022",
        "name": "2 B RECYCLAGE",
        "category": "Installation de traitement",
        "latitude": "47.717454",
        "longitude": "-0.96536"
    },
    {
        "siret": "33303497300029",
        "name": "ARC EN CIEL RECUPERATION",
        "category": "Collecteur-regroupeur",
        "latitude": "45.344481",
        "longitude": "5.423746"
    },
    {
        "siret": "44461925802482",
        "name": "RTE RESEAU DE TRANSPORT D ELECTRICITE",
        "category": "Producteur",
        "latitude": "48.891361",
        "longitude": "2.237051"
    },
    {
        "siret": "40321003200104",
        "name": "VEOLIA ENVIRONNEMENT",
        "category": "Producteur",
        "latitude": "48.873983",
        "longitude": "2.316857"
    },
    {
        "siret": "38044894400070",
        "name": "VINCI CONSTRUCTION FRANCE",
        "category": "Producteur",
        "latitude": "48.895117",
        "longitude": "2.19109"
    },
    {
        "siret": "44977566700024",
        "name": "G2 DEVELOPPEMENT G2D",
        "category": "Producteur",
        "latitude": "48.881469",
        "longitude": "2.341517"
    },
    {
        "siret": "56206223200045",
        "name": "VALENTIN",
        "category": "Producteur",
        "latitude": "48.77662",
        "longitude": "2.428165"
    },
    {
        "siret": "24070071600030",
        "name": "COMMUNAUTE DE COMMUNES DU VAL D'AY",
        "category": "Collecteur-regroupeur",
        "latitude": "45.173562",
        "longitude": "4.713572"
    },
    {
        "siret": "41773033000012",
        "name": "LRA LAURENT RABY ASSAINISSEMENT",
        "category": "Transporteur",
        "latitude": "45.396542",
        "longitude": "4.333419"
    },
    {
        "siret": "81360322200023",
        "name": "DASHDOC",
        "category": "Transporteur",
        "latitude": "48.845674",
        "longitude": "2.417699"
    },
    {
        "siret": "71362039100019",
        "name": "ENTR GENE FUZIER ET LAMBERT",
        "category": "Producteur",
        "latitude": "45.558723",
        "longitude": "5.312406"
    },
    {
        "siret": "34358505500019",
        "name": "SOFINPAR",
        "category": "Producteur",
        "latitude": "14.608586",
        "longitude": "-61.005809"
    },
    {
        "siret": "48889457700045",
        "name": "CEME PROCESS INDUSTRIEL",
        "category": "Transporteur",
        "latitude": "45.681347",
        "longitude": "4.894132"
    },
    {
        "siret": "50112072900022",
        "name": "BOLLIG & KEMPER FRANCE",
        "category": "Producteur",
        "latitude": "45.281758",
        "longitude": "5.937968"
    },
    {
        "siret": "43991405200055",
        "name": "OCR RHONE ALPES",
        "category": "Transporteur",
        "latitude": "45.623919",
        "longitude": "5.176049"
    },
    {
        "siret": "84883802500015",
        "name": "EURL TAXIS 347",
        "category": "Producteur",
        "latitude": "48.3888613",
        "longitude": "6.2322097"
    },
    {
        "siret": "44331392900012",
        "name": "ALPES FLEXIBLES",
        "category": "Producteur",
        "latitude": "45.164166",
        "longitude": "5.75913"
    },
    {
        "siret": "51212357100022",
        "name": "",
        "category": "Inconnu",
        "latitude": "43.111368",
        "longitude": "6.012391"
    },
    {
        "siret": "45650053700018",
        "name": "DALKIA",
        "category": "Producteur",
        "latitude": "50.654606",
        "longitude": "3.045015"
    },
    {
        "siret": "45650053704275",
        "name": "DALKIA",
        "category": "Producteur",
        "latitude": null,
        "longitude": null
    },
    {
        "siret": "49858249300017",
        "name": "",
        "category": "N\u00e9gociant",
        "latitude": "48.881828",
        "longitude": "2.288752"
    },
    {
        "siret": "49955693400028",
        "name": "DEPOLIA",
        "category": "Installation de traitement",
        "latitude": "48.368083",
        "longitude": "2.846174"
    },
    {
        "siret": "38014942700136",
        "name": "SPIE BATIGNOLLES FONDATIONS",
        "category": "Producteur",
        "latitude": "48.897613",
        "longitude": "2.198444"
    },
    {
        "siret": "50493419100025",
        "name": "HENSEL RECYCLING FRANCE",
        "category": "Installation de traitement",
        "latitude": "47.237304",
        "longitude": "5.109561"
    },
    {
        "siret": "31963279000857",
        "name": "",
        "category": "Producteur",
        "latitude": "48.908979",
        "longitude": "2.230907"
    },
    {
        "siret": "33818576200055",
        "name": "TREDI",
        "category": "Installation de traitement",
        "latitude": "45.837803",
        "longitude": "5.286431"
    },
    {
        "siret": "52532423200020",
        "name": "SDBA",
        "category": "Inconnu",
        "latitude": "46.903878",
        "longitude": "-0.195069"
    },
    {
        "siret": "48068074300022",
        "name": "PRESTA'CASSE",
        "category": "Collecteur-regroupeur",
        "latitude": "48.028425",
        "longitude": "-1.73009"
    },
    {
        "siret": "38770481000036",
        "name": "SEROP INDUSTRIE",
        "category": "Producteur",
        "latitude": "48.968847",
        "longitude": "2.037162"
    },
    {
        "siret": "52240128000022",
        "name": "MP3D SANITATION",
        "category": "Transporteur",
        "latitude": "44.147642",
        "longitude": "4.101303"
    },
    {
        "siret": "48195545800023",
        "name": "DTP2I",
        "category": "Producteur",
        "latitude": "49.145674",
        "longitude": "1.969643"
    },
    {
        "siret": "81232991000010",
        "name": "BOULANGERIE AU 148",
        "category": "Installation de traitement",
        "latitude": "46.314243",
        "longitude": "-0.450222"
    },
    {
        "siret": "02578032100029",
        "name": "",
        "category": "Producteur",
        "latitude": "46.445046",
        "longitude": "-0.215653"
    },
    {
        "siret": "30634946500105",
        "name": "SOTREMA",
        "category": "Collecteur-regroupeur",
        "latitude": "48.991997",
        "longitude": "1.653973"
    },
    {
        "siret": "52839028900031",
        "name": "COLLECO",
        "category": "Collecteur-regroupeur",
        "latitude": "49.818028",
        "longitude": "3.295533"
    },
    {
        "siret": "49349142700032",
        "name": "LASER GAME EQUIPEMENT",
        "category": "Producteur",
        "latitude": "45.184256",
        "longitude": "5.773975"
    },
    {
        "siret": "52270857700039",
        "name": "STEFAN RECYCLAGE",
        "category": "Collecteur-regroupeur",
        "latitude": "43.796829",
        "longitude": "3.870071"
    },
    {
        "siret": "32334697300049",
        "name": "KMG ULTRA PURE CHEMICALS SAS",
        "category": "Installation de traitement",
        "latitude": null,
        "longitude": null
    },
    {
        "siret": "78601893700015",
        "name": "FEDEREC OUEST",
        "category": "Producteur",
        "latitude": "47.21315",
        "longitude": "-1.559066"
    },
    {
        "siret": "33856725800011",
        "name": "",
        "category": "Producteur",
        "latitude": "45.644809",
        "longitude": "0.14074"
    },
    {
        "siret": "39063651200068",
        "name": "SOC DE LOCATION ET DE BENNES",
        "category": "Collecteur-regroupeur",
        "latitude": "48.865384",
        "longitude": "2.514833"
    },
    {
        "siret": "32623391300028",
        "name": "SERPOL",
        "category": "Collecteur-regroupeur",
        "latitude": "45.716058",
        "longitude": "4.861759"
    },
    {
        "siret": "71203540100090",
        "name": "VERTIV INDUSTRIAL SYSTEMS SAS",
        "category": "Producteur",
        "latitude": "45.724812",
        "longitude": "4.970905"
    },
    {
        "siret": "31998277300024",
        "name": "SOCIETE GUADELOUPEENNE DE BETON",
        "category": "Producteur",
        "latitude": "16.245534",
        "longitude": "-61.555498"
    },
    {
        "siret": "40450228800016",
        "name": "FORM EDIT",
        "category": "Producteur",
        "latitude": "48.879238",
        "longitude": "2.396733"
    },
    {
        "siret": "52922174900029",
        "name": "TOTAL RAFFINAGE FRANCE",
        "category": "Producteur",
        "latitude": "49.503488",
        "longitude": "0.216178"
    },
    {
        "siret": "41244251900507",
        "name": "",
        "category": "Producteur",
        "latitude": "48.795611",
        "longitude": "1.977592"
    },
    {
        "siret": "35082778800042",
        "name": "ATOS",
        "category": "Producteur",
        "latitude": "49.126514",
        "longitude": "0.289425"
    },
    {
        "siret": "38893526400357",
        "name": "SUEZ RR IWS",
        "category": "Transporteur",
        "latitude": "48.800556",
        "longitude": "1.982768"
    },
    {
        "siret": "24590042800013",
        "name": "COMMUNAUTE URBAINE DE DUNKERQUE",
        "category": "Inconnu",
        "latitude": "51.036493",
        "longitude": "2.370767"
    },
    {
        "siret": "71368073400017",
        "name": "CONDAT SA",
        "category": "Producteur",
        "latitude": "45.580836",
        "longitude": "4.794314"
    },
    {
        "siret": "51788699000038",
        "name": "ECHOLINE",
        "category": "Producteur",
        "latitude": "43.54013",
        "longitude": "1.524938"
    },
    {
        "siret": "43728120700013",
        "name": "GPA 26",
        "category": "Collecteur-regroupeur",
        "latitude": "44.802636",
        "longitude": "4.851984"
    },
    {
        "siret": "44803414000013",
        "name": "T.R.I.S.",
        "category": "Installation de traitement",
        "latitude": "47.264023",
        "longitude": "-1.129879"
    },
    {
        "siret": "43045991700026",
        "name": "",
        "category": "Producteur",
        "latitude": "45.025258",
        "longitude": "5.04008"
    },
    {
        "siret": "48047015201051",
        "name": "NORAUTO FRANCE",
        "category": "Producteur",
        "latitude": "45.34573",
        "longitude": "4.80503"
    },
    {
        "siret": "44374815700049",
        "name": "MYLAN LABORATORIES SAS",
        "category": "Producteur",
        "latitude": "46.116048",
        "longitude": "4.942428"
    },
    {
        "siret": "35281941100039",
        "name": "",
        "category": "Producteur",
        "latitude": "44.869758",
        "longitude": "-0.659841"
    },
    {
        "siret": "81456095900029",
        "name": "",
        "category": "Producteur",
        "latitude": "46.832484",
        "longitude": "-1.077195"
    },
    {
        "siret": "51270962700016",
        "name": "",
        "category": "Producteur",
        "latitude": "45.704737",
        "longitude": "4.806609"
    },
    {
        "siret": "35352535500080",
        "name": "TRIALP",
        "category": "Collecteur-regroupeur",
        "latitude": "45.583642",
        "longitude": "5.893942"
    },
    {
        "siret": "34398937200010",
        "name": "BIG BENNES",
        "category": "Collecteur-regroupeur",
        "latitude": "48.63998",
        "longitude": "2.730691"
    },
    {
        "siret": "50967463600014",
        "name": "TRUCKS MAINTENANCE",
        "category": "Producteur",
        "latitude": "45.2412671",
        "longitude": "5.8551309"
    },
    {
        "siret": "84095175000016",
        "name": "EMOH",
        "category": "Inconnu",
        "latitude": "50.530156",
        "longitude": "2.802444"
    },
    {
        "siret": "24440040400129",
        "name": "",
        "category": "Producteur",
        "latitude": "47.213797",
        "longitude": "-1.544258"
    },
    {
        "siret": "50798584400046",
        "name": "SUEZ RV OSIS NORD",
        "category": "Installation de traitement",
        "latitude": "49.636973",
        "longitude": "-1.590571"
    },
    {
        "siret": "31112719500056",
        "name": "YVES MADELINE",
        "category": "Collecteur-regroupeur",
        "latitude": "48.729808",
        "longitude": "-0.57838"
    },
    {
        "siret": "46850009500020",
        "name": "MILLE",
        "category": "Transporteur",
        "latitude": "50.607863",
        "longitude": "2.995071"
    },
    {
        "siret": "40872028200016",
        "name": "FRESENIUS VIAL",
        "category": "Producteur",
        "latitude": "45.346349",
        "longitude": "5.315522"
    },
    {
        "siret": "80833267003751",
        "name": "",
        "category": "Collecteur-regroupeur",
        "latitude": "45.762374",
        "longitude": "4.857323"
    },
    {
        "siret": "80833267002407",
        "name": "SNCF",
        "category": "Transporteur",
        "latitude": "43.602052",
        "longitude": "3.878769"
    },
    {
        "siret": "33332934000025",
        "name": "NORD ASSAINISSEMENT",
        "category": "Transporteur",
        "latitude": "51.019266",
        "longitude": "2.366249"
    },
    {
        "siret": "84395850500011",
        "name": "GME ENROBES",
        "category": "Producteur",
        "latitude": "45.297401",
        "longitude": "5.505687"
    },
    {
        "siret": "32801563100034",
        "name": "ROTOFRANCE IMPRESSION",
        "category": "Producteur",
        "latitude": "48.834655",
        "longitude": "2.629678"
    },
    {
        "siret": "38752431700014",
        "name": "SOCIETE NOUVELLE CLEAN 38",
        "category": "Producteur",
        "latitude": "45.7705982",
        "longitude": "5.0269111"
    },
    {
        "siret": "13000810500012",
        "name": "",
        "category": "Producteur",
        "latitude": "47.205689",
        "longitude": "-1.574332"
    },
    {
        "siret": "70202111400112",
        "name": "DERICHEBOURG PROPRETE",
        "category": "Producteur",
        "latitude": "48.760042",
        "longitude": "2.497018"
    },
    {
        "siret": "47829429100016",
        "name": "RECYDIS",
        "category": "Installation de traitement",
        "latitude": "48.939034",
        "longitude": "2.445428"
    },
    {
        "siret": "31882678100102",
        "name": "LA CORBEILLE BLEUE",
        "category": "Producteur",
        "latitude": "48.927604",
        "longitude": "2.405185"
    },
    {
        "siret": "85070540100014",
        "name": "POLLART*JULIEN/",
        "category": "Installation de traitement",
        "latitude": null,
        "longitude": null
    },
    {
        "siret": "35408025100086",
        "name": "ECOPUR",
        "category": "Installation de traitement",
        "latitude": "48.569006",
        "longitude": "2.464063"
    },
    {
        "siret": "44011762000375",
        "name": "GRTGAZ",
        "category": "Producteur",
        "latitude": "49.319338",
        "longitude": "6.113764"
    },
    {
        "siret": "38033842600014",
        "name": "TRANS AUTO COMMERCE DE L'OCCASION EN TOUS GENRES 32",
        "category": "Inconnu",
        "latitude": "43.613478",
        "longitude": "0.593509"
    },
    {
        "siret": "81019109800039",
        "name": "BREGEON*DENIS/",
        "category": "Producteur",
        "latitude": "44.881174",
        "longitude": "4.880968"
    },
    {
        "siret": "37801121700049",
        "name": "DS RECYCLAGE",
        "category": "Installation de traitement",
        "latitude": "42.984015",
        "longitude": "1.874219"
    },
    {
        "siret": "92722008700047",
        "name": "ETABLISSEMENTS MOUTON",
        "category": "Transporteur",
        "latitude": "49.410408",
        "longitude": "2.814148"
    },
    {
        "siret": "37930272200069",
        "name": "RENAUD*PASCAL CLAUDY/",
        "category": "N\u00e9gociant",
        "latitude": "48.685884",
        "longitude": "6.157846"
    },
    {
        "siret": "31261148600027",
        "name": "CONVIVIO-PRO",
        "category": "Producteur",
        "latitude": "46.612244",
        "longitude": "0.342513"
    },
    {
        "siret": "41811813900033",
        "name": "OPAL OUTILLAGE PRESSE - AUZOU LAVOINE",
        "category": "Producteur",
        "latitude": "50.06378",
        "longitude": "1.461979"
    },
    {
        "siret": "37941102800044",
        "name": "SABENA TECHNICS FNI",
        "category": "Producteur",
        "latitude": "43.760436",
        "longitude": "4.422785"
    },
    {
        "siret": "02578032100102",
        "name": "CARRIERES KLEBER MOREAU",
        "category": "Producteur",
        "latitude": "46.499689",
        "longitude": "-0.727436"
    },
    {
        "siret": "02578032100136",
        "name": "CARRIERES KLEBER MOREAU",
        "category": "Producteur",
        "latitude": "46.658748",
        "longitude": "-1.044491"
    },
    {
        "siret": "02578032100094",
        "name": "CARRIERES KLEBER MOREAU",
        "category": "Producteur",
        "latitude": "46.485428",
        "longitude": "-1.358484"
    },
    {
        "siret": "02578032100128",
        "name": "CARRIERES KLEBER MOREAU",
        "category": "Producteur",
        "latitude": "46.746651",
        "longitude": "-0.8143"
    },
    {
        "siret": "02578032100151",
        "name": "CARRIERES KLEBER MOREAU",
        "category": "Producteur",
        "latitude": null,
        "longitude": null
    },
    {
        "siret": "39913831200018",
        "name": "GALAXIE FRIGORIFIQUE REUNIONNAISE",
        "category": "Collecteur-regroupeur",
        "latitude": "-20.947478",
        "longitude": "55.318011"
    },
    {
        "siret": "38454528100055",
        "name": "TRIADIS SERVICES",
        "category": "Installation de traitement",
        "latitude": "48.07712",
        "longitude": "-1.7277"
    },
    {
        "siret": "24720034800115",
        "name": "COMMUNAUTE DE COMMUNES DU PAYS FLECHOIS",
        "category": "Producteur",
        "latitude": "47.697485",
        "longitude": "-0.07347"
    },
    {
        "siret": "76320006000021",
        "name": "ENTREPRISE GAUTHIER",
        "category": "Installation de traitement",
        "latitude": "45.846166",
        "longitude": "5.061708"
    },
    {
        "siret": "39191888500024",
        "name": "SECHE TRANSPORTS",
        "category": "Transporteur",
        "latitude": "48.10388",
        "longitude": "-0.801995"
    },
    {
        "siret": "04565045400023",
        "name": "THEYS ASSAINISSEMENT",
        "category": "Transporteur",
        "latitude": "50.378743",
        "longitude": "3.163109"
    },
    {
        "siret": "50461549300047",
        "name": "ALGORA ENVIRONNEMENT",
        "category": "Collecteur-regroupeur",
        "latitude": "43.55429",
        "longitude": "6.954424"
    },
    {
        "siret": "33818576200063",
        "name": "TREDI",
        "category": "Installation de traitement",
        "latitude": "45.7705982",
        "longitude": "5.0269111"
    },
    {
        "siret": "41351213800020",
        "name": "TANK SOLUTIONS NORMANDIE",
        "category": "Collecteur-regroupeur",
        "latitude": "49.475603",
        "longitude": "0.304034"
    },
    {
        "siret": "33927887100019",
        "name": "DECHETS RECUPERATION INDUSTRIELS ET MENAGERS DE MONTECH",
        "category": "Installation de traitement",
        "latitude": "43.98603",
        "longitude": "1.231863"
    },
    {
        "siret": "33818576200071",
        "name": "TREDI",
        "category": "Installation de traitement",
        "latitude": "45.34251",
        "longitude": "4.798604"
    },
    {
        "siret": "48047015202661",
        "name": "NORAUTO FRANCE",
        "category": "Producteur",
        "latitude": "44.53536",
        "longitude": "4.729092"
    },
    {
        "siret": "34855241500070",
        "name": "COFIDUR EMS",
        "category": "Producteur",
        "latitude": "48.074807",
        "longitude": "-0.744251"
    },
    {
        "siret": "31019914600047",
        "name": "SOC NOUVELLE D'AFFINAGE DES METAUX",
        "category": "Installation de traitement",
        "latitude": "44.557295",
        "longitude": "2.217601"
    },
    {
        "siret": "44222656900030",
        "name": "",
        "category": "Transporteur",
        "latitude": "48.392539",
        "longitude": "-4.4503"
    },
    {
        "siret": "31407775100027",
        "name": "SITREM",
        "category": "Installation de traitement",
        "latitude": "48.899738",
        "longitude": "2.449412"
    },
    {
        "siret": "83283907000014",
        "name": "LIBRA DATA",
        "category": "Producteur",
        "latitude": "48.886044",
        "longitude": "2.17141"
    },
    {
        "siret": "08548044000040",
        "name": "SOCIETE ORLEANAISE D'ASSAINISSEMENT",
        "category": "Collecteur-regroupeur",
        "latitude": "47.977591",
        "longitude": "0.166595"
    },
    {
        "siret": "44041547900029",
        "name": "TRAITEMENT DES BATTERIES DE LA REUNION (A.T.B.R.)",
        "category": "Producteur",
        "latitude": "-20.879257",
        "longitude": "55.446131"
    },
    {
        "siret": "54206292200043",
        "name": "CHIESI SAS",
        "category": "Producteur",
        "latitude": null,
        "longitude": null
    },
    {
        "siret": "73612020500025",
        "name": "KADANT LAMORT",
        "category": "Producteur",
        "latitude": "48.713628",
        "longitude": "4.583834"
    },
    {
        "siret": "34004392600088",
        "name": "40-30",
        "category": "Producteur",
        "latitude": "45.260675",
        "longitude": "5.868792"
    },
    {
        "siret": "49031262600024",
        "name": "ELO ENERGIE",
        "category": "Transporteur",
        "latitude": "47.374626",
        "longitude": "-1.645626"
    },
    {
        "siret": "53070853600038",
        "name": "ALME ENVIRONNEMENT",
        "category": "Collecteur-regroupeur",
        "latitude": "45.473151",
        "longitude": "4.383881"
    },
    {
        "siret": "42921726800037",
        "name": "B S ENVIRONNEMENT",
        "category": "Installation de traitement",
        "latitude": "47.80567",
        "longitude": "1.084696"
    },
    {
        "siret": "48953305900122",
        "name": "ALLIANCE ENVIRONNEMENT EXPLOITATION",
        "category": "Installation de traitement",
        "latitude": "43.686403",
        "longitude": "4.147624"
    },
    {
        "siret": "71262071500169",
        "name": "SUEZ RV MEDITERRANEE",
        "category": "Installation de traitement",
        "latitude": "43.157342",
        "longitude": "2.978215"
    },
    {
        "siret": "41529484200018",
        "name": "RECUPERATION SERVICES AUTO ROCHIS",
        "category": "Inconnu",
        "latitude": null,
        "longitude": null
    },
    {
        "siret": "44460844209548",
        "name": "ENEDIS",
        "category": "Producteur",
        "latitude": "43.134293",
        "longitude": "6.031201"
    },
    {
        "siret": "55208131735626",
        "name": "ELECTRICITE DE FRANCE",
        "category": "Producteur",
        "latitude": "49.474601",
        "longitude": "0.140329"
    },
    {
        "siret": "49910640900026",
        "name": "EFOR",
        "category": "Transporteur",
        "latitude": "50.704974",
        "longitude": "3.160742"
    },
    {
        "siret": "44452491200060",
        "name": "AZURTECH ENVIRONNEMENT",
        "category": "Producteur",
        "latitude": "43.629427",
        "longitude": "5.084113"
    },
    {
        "siret": "61662009200083",
        "name": "REVIVAL",
        "category": "Installation de traitement",
        "latitude": "50.393468",
        "longitude": "3.550799"
    },
    {
        "siret": "50533855800016",
        "name": "LIBOURNE HYGIENE",
        "category": "Transporteur",
        "latitude": "44.912334",
        "longitude": "-0.220445"
    },
    {
        "siret": "38956699300017",
        "name": "AVENIR COMPLEXAGE SERVICE",
        "category": "Producteur",
        "latitude": null,
        "longitude": null
    },
    {
        "siret": "05480214500109",
        "name": "TRANSPORTS ET ENTRETIEN PHOCEENS",
        "category": "Transporteur",
        "latitude": "43.335138",
        "longitude": "5.371038"
    },
    {
        "siret": "38014135800024",
        "name": "PENA ENVIRONNEMENT",
        "category": "Installation de traitement",
        "latitude": "44.768817",
        "longitude": "-0.771065"
    },
    {
        "siret": "81527887400012",
        "name": "AGENCE DE CONTROLE TECHNIQUE IMMOBILIER ET DE FORMATION",
        "category": "Producteur",
        "latitude": "48.584164",
        "longitude": "7.744938"
    },
    {
        "siret": "41100783400038",
        "name": "DIAGAMTER",
        "category": "Producteur",
        "latitude": "43.609405",
        "longitude": "1.42401"
    },
    {
        "siret": "56209399700061",
        "name": "FRANCHE COMTE TRAVAUX PUBLICS",
        "category": "Collecteur-regroupeur",
        "latitude": "48.730108",
        "longitude": "2.437222"
    },
    {
        "siret": "34147065600099",
        "name": "TELEDYNE E2V SEMICONDUCTORS SAS",
        "category": "Producteur",
        "latitude": "45.240379",
        "longitude": "5.682543"
    },
    {
        "siret": "81938543600020",
        "name": "LENGLET*JUDITH LUCIE MARIE/",
        "category": "Installation de traitement",
        "latitude": "48.873073",
        "longitude": "2.38059"
    },
    {
        "siret": "44017364900011",
        "name": "CITADELLE",
        "category": "Producteur",
        "latitude": "14.617858",
        "longitude": "-61.020263"
    },
    {
        "siret": "84526698000018",
        "name": "LAFON*LIONEL/",
        "category": "Producteur",
        "latitude": "49.262488",
        "longitude": "4.020325"
    },
    {
        "siret": "83233607700017",
        "name": "PROSERVE DASRI",
        "category": "Installation de traitement",
        "latitude": "48.843373",
        "longitude": "2.373772"
    },
    {
        "siret": "47884866600010",
        "name": "APPRO-SERVICE",
        "category": "Producteur",
        "latitude": null,
        "longitude": null
    },
    {
        "siret": "35600000001870",
        "name": "LA POSTE",
        "category": "Producteur",
        "latitude": "45.17657",
        "longitude": "0.769086"
    },
    {
        "siret": "34967725200026",
        "name": "",
        "category": "Inconnu",
        "latitude": "48.658876",
        "longitude": "2.190875"
    },
    {
        "siret": "43523314300039",
        "name": "LES JARDINS DE L'ORBRIE",
        "category": "Producteur",
        "latitude": "46.847962",
        "longitude": "-0.53173"
    },
    {
        "siret": "49312988600203",
        "name": "DALKIA BIOGAZ",
        "category": "Producteur",
        "latitude": "48.888485",
        "longitude": "2.239634"
    },
    {
        "siret": "34296889800045",
        "name": "ROUBY INDUSTRIE",
        "category": "Producteur",
        "latitude": "45.614984",
        "longitude": "-0.358126"
    },
    {
        "siret": "84873449700011",
        "name": "COMMEX",
        "category": "Producteur",
        "latitude": "49.124632",
        "longitude": "7.115876"
    },
    {
        "siret": "15400016000130",
        "name": "",
        "category": "Producteur",
        "latitude": "",
        "longitude": ""
    },
    {
        "siret": "81152073300015",
        "name": "BAKHIYI*RACHIDA/",
        "category": "Producteur",
        "latitude": "44.763883",
        "longitude": "-0.551026"
    },
    {
        "siret": "11006801200050",
        "name": "MINISTERE DE LA TRANSITION ECOLOGIQUE ET SOLIDAIRE",
        "category": "Producteur",
        "latitude": "48.857224",
        "longitude": "2.324617"
    },
    {
        "siret": "06504687952147",
        "name": "",
        "category": "Producteur",
        "latitude": "",
        "longitude": ""
    },
    {
        "siret": "38020726600046",
        "name": "LENOIR SERVICES",
        "category": "Producteur",
        "latitude": "45.780191",
        "longitude": "4.904107"
    },
    {
        "siret": "49071412800017",
        "name": "TERRE D'OC EVOLUTION",
        "category": "Producteur",
        "latitude": "43.88916",
        "longitude": "5.87232"
    },
    {
        "siret": "32795619900027",
        "name": "INDUSTRIE PAPETERIE CHARENTAISE",
        "category": "Producteur",
        "latitude": "45.675825",
        "longitude": "0.140637"
    },
    {
        "siret": "82903595500014",
        "name": "TRADEVA",
        "category": "N\u00e9gociant",
        "latitude": null,
        "longitude": null
    },
    {
        "siret": "99823900800027",
        "name": "",
        "category": "Transporteur",
        "latitude": "48.773916",
        "longitude": "2.010454"
    },
    {
        "siret": "56211034600169",
        "name": "TERREAL",
        "category": "Producteur",
        "latitude": "43.612355",
        "longitude": "1.317327"
    },
    {
        "siret": "33783424600015",
        "name": "HOUDELOT NEGOCE SARL",
        "category": "Installation de traitement",
        "latitude": "46.848697",
        "longitude": "-0.467529"
    },
    {
        "siret": "32337343100051",
        "name": "ACSE",
        "category": "Producteur",
        "latitude": "43.712486",
        "longitude": "7.289583"
    },
    {
        "siret": "34791402000099",
        "name": "FIVES CONVEYING",
        "category": "Producteur",
        "latitude": "48.857942",
        "longitude": "2.755801"
    },
    {
        "siret": "84258195100014",
        "name": "GARAGE ROSSAT",
        "category": "Producteur",
        "latitude": "45.39377",
        "longitude": "5.422647"
    },
    {
        "siret": "34435244800445",
        "name": "SOGEA RHONE-ALPES",
        "category": "Producteur",
        "latitude": "45.701105",
        "longitude": "4.457874"
    },
    {
        "siret": "82780516900022",
        "name": "MIRA*PATRICK PHILIPPE GABRIEL/",
        "category": "Transporteur",
        "latitude": "44.604659",
        "longitude": "-0.555096"
    },
    {
        "siret": "80023273800016",
        "name": "AXBIOTEC",
        "category": "Producteur",
        "latitude": "45.756416",
        "longitude": "4.420324"
    },
    {
        "siret": "49062619900031",
        "name": "EMERAUDE DEPOLLUTION",
        "category": "Producteur",
        "latitude": "48.081087",
        "longitude": "-0.741251"
    },
    {
        "siret": "50178965500021",
        "name": "INDICIA PRODUCTION",
        "category": "Producteur",
        "latitude": "45.709504",
        "longitude": "4.483334"
    },
    {
        "siret": "38427974100027",
        "name": "THIVILLIER JEROME",
        "category": "Producteur",
        "latitude": "45.704406",
        "longitude": "4.46359"
    },
    {
        "siret": "34256234500039",
        "name": "CMS INDUSTRIE",
        "category": "Producteur",
        "latitude": "45.704689",
        "longitude": "4.469651"
    },
    {
        "siret": "81157003500014",
        "name": "TRANSPORTS ARTON CHRISTOPHE",
        "category": "Transporteur",
        "latitude": "47.412789",
        "longitude": "4.288309"
    },
    {
        "siret": "37981848700041",
        "name": "EVJ SCET",
        "category": "Transporteur",
        "latitude": "45.032322",
        "longitude": "5.082346"
    },
    {
        "siret": "81505104000013",
        "name": "ARRAGON*LUCILLE/",
        "category": "N\u00e9gociant",
        "latitude": "43.285505",
        "longitude": "5.37625"
    },
    {
        "siret": "38259766400012",
        "name": "IFOPSE",
        "category": "Producteur",
        "latitude": "47.520763",
        "longitude": "-2.283218"
    },
    {
        "siret": "38259766400020",
        "name": "IFOPSE",
        "category": "Producteur",
        "latitude": null,
        "longitude": null
    },
    {
        "siret": "79208109300017",
        "name": "CONDAMIN SIGNALISATION MARQUAGE",
        "category": "Producteur",
        "latitude": "45.457879",
        "longitude": "4.394207"
    },
    {
        "siret": "35326120900061",
        "name": "SOC CONDAMIN NETTOYAGE",
        "category": "Producteur",
        "latitude": "45.457879",
        "longitude": "4.394207"
    },
    {
        "siret": "80538288400015",
        "name": "CONDAMIN TECHNOLOGIE",
        "category": "Producteur",
        "latitude": "45.714205",
        "longitude": "4.818252"
    },
    {
        "siret": "84922143700015",
        "name": "NEW WAY",
        "category": "Producteur",
        "latitude": "43.300626",
        "longitude": "5.381178"
    },
    {
        "siret": "40064129600035",
        "name": "INDRA SAS",
        "category": "Inconnu",
        "latitude": "47.363937",
        "longitude": "1.711308"
    },
    {
        "siret": "38089172100025",
        "name": "SARL MECANIQUE ET SERVICES",
        "category": "N\u00e9gociant",
        "latitude": "44.3302195",
        "longitude": "3.0466669"
    },
    {
        "siret": "72204385800074",
        "name": "AGC GLASS FRANCE",
        "category": "Producteur",
        "latitude": "50.287697",
        "longitude": "4.0304"
    },
    {
        "siret": "82024325100015",
        "name": "TEGOS SYSTEMS LTD",
        "category": "Inconnu",
        "latitude": null,
        "longitude": null
    },
    {
        "siret": "34516642500040",
        "name": "PRISMAFLEX INTERNATIONAL",
        "category": "Producteur",
        "latitude": "45.718996",
        "longitude": "4.397546"
    },
    {
        "siret": "56211521200036",
        "name": "JACOBI CARBONS FRANCE",
        "category": "N\u00e9gociant",
        "latitude": "47.20981",
        "longitude": "2.103943"
    },
    {
        "siret": "43392522900026",
        "name": "KTK FRANCE SEATS",
        "category": "Producteur",
        "latitude": "45.523001",
        "longitude": "4.278006"
    },
    {
        "siret": "95450607701201",
        "name": "RENAULT TRUCKS",
        "category": "Producteur",
        "latitude": "45.897365",
        "longitude": "1.280582"
    },
    {
        "siret": "47903680800034",
        "name": "AGILYA SOLUTIONS",
        "category": "N\u00e9gociant",
        "latitude": "48.916682",
        "longitude": "2.309475"
    },
    {
        "siret": "81082397100025",
        "name": "FIGURE",
        "category": "Producteur",
        "latitude": "48.857235",
        "longitude": "2.447239"
    },
    {
        "siret": "42066961600021",
        "name": "LA PROTECTION INCENDIE",
        "category": "Collecteur-regroupeur",
        "latitude": null,
        "longitude": null
    },
    {
        "siret": "83403248400026",
        "name": "BUILDING SERVICES MANAGEMENT",
        "category": "Producteur",
        "latitude": "48.781663",
        "longitude": "2.210487"
    },
    {
        "siret": "33051678200027",
        "name": "E R C E I",
        "category": "Producteur",
        "latitude": "45.312041",
        "longitude": "4.28446"
    },
    {
        "siret": "30821885800089",
        "name": "SOCIETE NOUVELLE ASSAINISSEMENT VIDANGES EGOUTS - BILLARD",
        "category": "Transporteur",
        "latitude": "48.959838",
        "longitude": "2.904084"
    },
    {
        "siret": "30821885800048",
        "name": "SOCIETE NOUVELLE ASSAINISSEMENT VIDANGES EGOUTS - BILLARD",
        "category": "Producteur",
        "latitude": "48.537324",
        "longitude": "2.686471"
    },
    {
        "siret": "33100471300037",
        "name": "THIERRY CHEFNEUX ASSAINISSEMENT",
        "category": "Transporteur",
        "latitude": "45.61984",
        "longitude": "4.76191"
    },
    {
        "siret": "69162065200046",
        "name": "L AUXILIAIRE IMMOBILIER",
        "category": "Transporteur",
        "latitude": "43.556773",
        "longitude": "5.45213"
    },
    {
        "siret": "30832792300014",
        "name": "SOCIETE D'EXPLOITATION DE TRANSPORT ET EVACUATION D'ORDURES",
        "category": "Installation de traitement",
        "latitude": "47.330184",
        "longitude": "5.07721"
    },
    {
        "siret": "87892854800014",
        "name": "TOUTES LES BATTERIES.COM",
        "category": "Collecteur-regroupeur",
        "latitude": "45.726301",
        "longitude": "5.237684"
    },
    {
        "siret": "52954156700028",
        "name": "HOUSSEN*ISMAEL/",
        "category": "Collecteur-regroupeur",
        "latitude": "-20.887151",
        "longitude": "55.453793"
    },
    {
        "siret": "43827703000534",
        "name": "ENDEL",
        "category": "Producteur",
        "latitude": "47.918253",
        "longitude": "7.564567"
    },
    {
        "siret": "43827703000591",
        "name": "ENDEL",
        "category": "Producteur",
        "latitude": "48.935216",
        "longitude": "2.256265"
    },
    {
        "siret": "48432466000089",
        "name": "CNN MCO",
        "category": "Producteur",
        "latitude": "48.425916",
        "longitude": "-4.438786"
    },
    {
        "siret": "43827703000542",
        "name": "ENDEL",
        "category": "Collecteur-regroupeur",
        "latitude": "5.160123",
        "longitude": "-52.667913"
    },
    {
        "siret": "48803489300013",
        "name": "ESCARMENT*YANN FRANCOIS EDOUAR/",
        "category": "Producteur",
        "latitude": "48.767648",
        "longitude": "2.115997"
    },
    {
        "siret": "31176579600017",
        "name": "ETS J MARTIN",
        "category": "Installation de traitement",
        "latitude": "48.048671",
        "longitude": "1.874334"
    },
    {
        "siret": "66558007200197",
        "name": "BONDUELLE EUROPE LONG LIFE",
        "category": "Producteur",
        "latitude": "49.878099",
        "longitude": "3.046052"
    },
    {
        "siret": "39941667600076",
        "name": "PHILIPPE TOURNAIRE",
        "category": "Producteur",
        "latitude": "45.609745",
        "longitude": "4.097216"
    },
    {
        "siret": "33189000400111",
        "name": "CURAGE INDUSTRIEL DE GONESSE",
        "category": "Transporteur",
        "latitude": "48.942839",
        "longitude": "2.274558"
    },
    {
        "siret": "41498957400028",
        "name": "CAKTUS",
        "category": "Installation de traitement",
        "latitude": "47.097916",
        "longitude": "2.433448"
    },
    {
        "siret": "35062883000027",
        "name": "CREATIONS HALLOISES",
        "category": "Producteur",
        "latitude": null,
        "longitude": null
    },
    {
        "siret": "32764134600033",
        "name": "TRADIVAL",
        "category": "Producteur",
        "latitude": "45.472477",
        "longitude": "4.421327"
    },
    {
        "siret": "40910170600219",
        "name": "UPERGY",
        "category": "Producteur",
        "latitude": "45.804284",
        "longitude": "4.777859"
    },
    {
        "siret": "40448410700028",
        "name": "CILA SAS",
        "category": "Installation de traitement",
        "latitude": "50.196732",
        "longitude": "3.844804"
    },
    {
        "siret": "41140264700027",
        "name": "HIMOREX",
        "category": "Producteur",
        "latitude": "45.718163",
        "longitude": "4.980379"
    },
    {
        "siret": "54205079400115",
        "name": "MONTUPET",
        "category": "Installation de traitement",
        "latitude": "49.289683",
        "longitude": "2.452028"
    },
    {
        "siret": "40496955200011",
        "name": "MARTEK POWER F",
        "category": "Producteur",
        "latitude": "45.792084",
        "longitude": "4.445974"
    },
    {
        "siret": "84249761200015",
        "name": "OBIOSEED",
        "category": "Producteur",
        "latitude": "43.261769",
        "longitude": "5.782009"
    },
    {
        "siret": "51158920200023",
        "name": "ECOLOGIC PETROLEUM RECOVERY",
        "category": "Installation de traitement",
        "latitude": "49.505994",
        "longitude": "0.537148"
    },
    {
        "siret": "39236795900039",
        "name": "LES TROIS CHENES",
        "category": "Producteur",
        "latitude": "45.810278",
        "longitude": "4.409328"
    },
    {
        "siret": "44460844203269",
        "name": "ENEDIS",
        "category": "Producteur",
        "latitude": "47.374074",
        "longitude": "-1.179026"
    },
    {
        "siret": "44460844209043",
        "name": "ENEDIS",
        "category": "Producteur",
        "latitude": "47.47914",
        "longitude": "-1.772371"
    },
    {
        "siret": "44460844203277",
        "name": "ENEDIS",
        "category": "Producteur",
        "latitude": "47.722729",
        "longitude": "-1.378192"
    },
    {
        "siret": "44460844203699",
        "name": "ENEDIS",
        "category": "Producteur",
        "latitude": "47.219592",
        "longitude": "-1.556556"
    },
    {
        "siret": "44460844203723",
        "name": "ENEDIS",
        "category": "Producteur",
        "latitude": "47.261778",
        "longitude": "-1.587818"
    },
    {
        "siret": "44478651104420",
        "name": "GRDF",
        "category": "Producteur",
        "latitude": "47.261778",
        "longitude": "-1.587818"
    },
    {
        "siret": "44460844203871",
        "name": "ENEDIS",
        "category": "Producteur",
        "latitude": "47.178213",
        "longitude": "-1.524913"
    },
    {
        "siret": "83280057700013",
        "name": "PRUNIERES MASSIF CENTRAL",
        "category": "Transporteur",
        "latitude": "44.721573",
        "longitude": "3.282962"
    },
    {
        "siret": "44460844203806",
        "name": "ENEDIS",
        "category": "Producteur",
        "latitude": "47.123031",
        "longitude": "-2.122819"
    },
    {
        "siret": "44460844206304",
        "name": "ENEDIS",
        "category": "Producteur",
        "latitude": "47.2823",
        "longitude": "-2.2352"
    },
    {
        "siret": "44460844209076",
        "name": "ENEDIS",
        "category": "Producteur",
        "latitude": "47.481736",
        "longitude": "-0.549979"
    },
    {
        "siret": "44460844209084",
        "name": "ENEDIS",
        "category": "Producteur",
        "latitude": "47.462677",
        "longitude": "-0.628039"
    },
    {
        "siret": "44460844209142",
        "name": "ENEDIS",
        "category": "Producteur",
        "latitude": "47.07584",
        "longitude": "-0.872264"
    },
    {
        "siret": "44460844206312",
        "name": "ENEDIS",
        "category": "Producteur",
        "latitude": "47.281314",
        "longitude": "-0.05494"
    },
    {
        "siret": "44460844209191",
        "name": "ENEDIS",
        "category": "Producteur",
        "latitude": "48.062681",
        "longitude": "-0.760995"
    },
    {
        "siret": "44460844209209",
        "name": "ENEDIS",
        "category": "Producteur",
        "latitude": "48.073605",
        "longitude": "-0.765325"
    },
    {
        "siret": "44460844213896",
        "name": "ENEDIS",
        "category": "Producteur",
        "latitude": "48.085623",
        "longitude": "-0.743054"
    },
    {
        "siret": "44460844209225",
        "name": "ENEDIS",
        "category": "Producteur",
        "latitude": "48.310994",
        "longitude": "-0.639199"
    },
    {
        "siret": "44460844209233",
        "name": "ENEDIS",
        "category": "Producteur",
        "latitude": "47.818186",
        "longitude": "-0.707328"
    },
    {
        "siret": "44460844203939",
        "name": "ENEDIS",
        "category": "Producteur",
        "latitude": "48.227889",
        "longitude": "0.131878"
    },
    {
        "siret": "44460844203947",
        "name": "ENEDIS",
        "category": "Producteur",
        "latitude": "48.182188",
        "longitude": "0.638303"
    },
    {
        "siret": "44460844204044",
        "name": "ENEDIS",
        "category": "Producteur",
        "latitude": "47.698086",
        "longitude": "-0.087502"
    },
    {
        "siret": "44460844204028",
        "name": "ENEDIS",
        "category": "Producteur",
        "latitude": "47.999183",
        "longitude": "0.181418"
    },
    {
        "siret": "44460844204036",
        "name": "ENEDIS",
        "category": "Producteur",
        "latitude": "48.005658",
        "longitude": "0.184757"
    },
    {
        "siret": "44460844204069",
        "name": "ENEDIS",
        "category": "Producteur",
        "latitude": "46.846243",
        "longitude": "-1.89277"
    },
    {
        "siret": "44460844204101",
        "name": "ENEDIS",
        "category": "Producteur",
        "latitude": "46.727285",
        "longitude": "-2.350014"
    },
    {
        "siret": "44460844204135",
        "name": "ENEDIS",
        "category": "Producteur",
        "latitude": "46.681279",
        "longitude": "-1.440943"
    },
    {
        "siret": "44460844204168",
        "name": "ENEDIS",
        "category": "Producteur",
        "latitude": "46.658913",
        "longitude": "-1.441901"
    },
    {
        "siret": "44460844204176",
        "name": "ENEDIS",
        "category": "Producteur",
        "latitude": "46.87228",
        "longitude": "-1.018271"
    },
    {
        "siret": "44460844212575",
        "name": "ENEDIS",
        "category": "Producteur",
        "latitude": "46.459479",
        "longitude": "-1.140701"
    },
    {
        "siret": "44460844212450",
        "name": "ENEDIS",
        "category": "Producteur",
        "latitude": "46.518948",
        "longitude": "-1.78301"
    },
    {
        "siret": "44460844212740",
        "name": "ENEDIS",
        "category": "Producteur",
        "latitude": "48.7670132",
        "longitude": "2.4534723"
    },
    {
        "siret": "80054749900023",
        "name": "PV CYCLE FRANCE",
        "category": "Producteur",
        "latitude": "48.869357",
        "longitude": "2.33719"
    },
    {
        "siret": "81761178300017",
        "name": "ASSOCIATION POUR LA PLAISANCE ECO-RESPONSABLE POUR LES PRODUITS PYROTECHNIQUES",
        "category": "Producteur",
        "latitude": "48.84941",
        "longitude": "2.280585"
    },
    {
        "siret": "40829501200038",
        "name": "BIOGENIE EUROPE SAS",
        "category": "Installation de traitement",
        "latitude": "48.575077",
        "longitude": "2.399487"
    },
    {
        "siret": "42258207200035",
        "name": "SOC DE COLLECTE ET DE RECYCLAGE DES EQUIPEMENTS ELECTRIQUES ET ELECTRONIQUES SA",
        "category": "N\u00e9gociant",
        "latitude": "48.844423",
        "longitude": "2.321638"
    },
    {
        "siret": "83373765300018",
        "name": "ALTAROAD",
        "category": "Producteur",
        "latitude": "48.814598",
        "longitude": "2.341219"
    },
    {
        "siret": "42248908800035",
        "name": "COREPILE",
        "category": "Producteur",
        "latitude": "48.867287",
        "longitude": "2.297733"
    },
    {
        "siret": "56262077300803",
        "name": "SINIAT",
        "category": "Installation de traitement",
        "latitude": "44.041629",
        "longitude": "5.03522"
    },
    {
        "siret": "56262077300548",
        "name": "SINIAT",
        "category": "Installation de traitement",
        "latitude": "49.386362",
        "longitude": "1.99908"
    },
    {
        "siret": "56262077300423",
        "name": "SINIAT",
        "category": "Installation de traitement",
        "latitude": "44.922552",
        "longitude": "-0.450696"
    },
    {
        "siret": "53849587000031",
        "name": "ECO-MOBILIER",
        "category": "Producteur",
        "latitude": "48.845587",
        "longitude": "2.378507"
    },
    {
        "siret": "31566921800028",
        "name": "SOCIETE DE TRAITEMENT D'EFFLUENTS INDUSTRIELS SOTREFI",
        "category": "Installation de traitement",
        "latitude": "47.514065",
        "longitude": "6.865936"
    },
    {
        "siret": "78665007700047",
        "name": "OURRY",
        "category": "Collecteur-regroupeur",
        "latitude": "48.621142",
        "longitude": "2.729839"
    },
    {
        "siret": "48787244200024",
        "name": "NAVARRA TERRASSEMENTS SPECIAUX",
        "category": "Producteur",
        "latitude": "44.784129",
        "longitude": "-0.64605"
    },
    {
        "siret": "30123960400061",
        "name": "COMPAGNIE DE TERRASSEMENTS GENERAUX",
        "category": "Transporteur",
        "latitude": "48.860162",
        "longitude": "2.491161"
    },
    {
        "siret": "38872967500032",
        "name": "HOLDING ERIC LEDEUX",
        "category": "Collecteur-regroupeur",
        "latitude": "50.033548",
        "longitude": "3.044586"
    },
    {
        "siret": "79946473000016",
        "name": "MAUVIEL",
        "category": "Producteur",
        "latitude": "47.886367",
        "longitude": "3.532171"
    },
    {
        "siret": "52392066800036",
        "name": "SAS LPNMCCL",
        "category": "Inconnu",
        "latitude": "47.494597",
        "longitude": "3.925001"
    },
    {
        "siret": "53740637300036",
        "name": "VALDELIA",
        "category": "Producteur",
        "latitude": "43.536154",
        "longitude": "1.51694"
    },
    {
        "siret": "31348433900038",
        "name": "NEGO METAL",
        "category": "Installation de traitement",
        "latitude": "45.04373",
        "longitude": "5.085531"
    },
    {
        "siret": "42415510900012",
        "name": "LABEL PIECE",
        "category": "Producteur",
        "latitude": "50.643623",
        "longitude": "3.125739"
    },
    {
        "siret": "40263640100018",
        "name": "AUTO PIECES 43",
        "category": "Producteur",
        "latitude": "43.7820858",
        "longitude": "4.2193968"
    },
    {
        "siret": "39106609900014",
        "name": "SOCIETE EXPLOITATION ETABLIS MEMPONTEL",
        "category": "Collecteur-regroupeur",
        "latitude": "47.081626",
        "longitude": "2.733795"
    },
    {
        "siret": "32129777200014",
        "name": "RENE JORY",
        "category": "Inconnu",
        "latitude": "49.215886",
        "longitude": "2.160371"
    },
    {
        "siret": "51925335500027",
        "name": "SENERVAL",
        "category": "Installation de traitement",
        "latitude": "48.51842",
        "longitude": "7.788837"
    },
    {
        "siret": "78981369800022",
        "name": "GEBERIT PRODUCTION",
        "category": "Producteur",
        "latitude": "45.810057",
        "longitude": "1.283842"
    },
    {
        "siret": "56262077300811",
        "name": "SINIAT",
        "category": "Collecteur-regroupeur",
        "latitude": "44.921216",
        "longitude": "-0.450399"
    },
    {
        "siret": "44450679400023",
        "name": "REICHSTETT MATERIAUX",
        "category": "Installation de traitement",
        "latitude": "48.663385",
        "longitude": "7.765604"
    },
    {
        "siret": "42498881400036",
        "name": "PLANCHER ENVIRONNEMENT",
        "category": "Installation de traitement",
        "latitude": "44.581864",
        "longitude": "4.438419"
    },
    {
        "siret": "56262077300605",
        "name": "SINIAT",
        "category": "Installation de traitement",
        "latitude": "44.042182",
        "longitude": "5.036148"
    },
    {
        "siret": "38870057700025",
        "name": "IMPACT ENVIRONNEMENT SERVICES",
        "category": "Collecteur-regroupeur",
        "latitude": "45.202433",
        "longitude": "5.824073"
    },
    {
        "siret": "49448722600016",
        "name": "TRANS NATURAL",
        "category": "Transporteur",
        "latitude": "45.258763",
        "longitude": "5.144554"
    },
    {
        "siret": "41382431900037",
        "name": "AVENIR DECONSTRUCTION",
        "category": "Producteur",
        "latitude": "44.851682",
        "longitude": "-0.495505"
    },
    {
        "siret": "42083758500033",
        "name": "RESOLEST",
        "category": "Installation de traitement",
        "latitude": "48.602626",
        "longitude": "6.36156"
    },
    {
        "siret": "88555028500013",
        "name": "TOLERIE FOREZIENNE",
        "category": "Producteur",
        "latitude": "45.52474",
        "longitude": "4.208439"
    },
    {
        "siret": "48864935100019",
        "name": "SARL BENNES 13",
        "category": "Collecteur-regroupeur",
        "latitude": "43.794665",
        "longitude": "4.806074"
    },
    {
        "siret": "38014154900010",
        "name": "PENA METAUX SA",
        "category": "Installation de traitement",
        "latitude": "44.809836",
        "longitude": "-0.726463"
    },
    {
        "siret": "84286303700011",
        "name": "WASTE MARKETPLACE",
        "category": "N\u00e9gociant",
        "latitude": "45.756333",
        "longitude": "4.897416"
    },
    {
        "siret": "25300286900019",
        "name": "SYNDICAT MIXTE TRAITEMENT ORDURES MENAGERES ET ASSIMILES",
        "category": "Collecteur-regroupeur",
        "latitude": "45.2656114",
        "longitude": "1.7732985"
    },
    {
        "siret": "84260463900026",
        "name": "LF RECYCLAGE",
        "category": "Collecteur-regroupeur",
        "latitude": "44.924164",
        "longitude": "-0.462685"
    },
    {
        "siret": "43002667400019",
        "name": "DECHETS SERVICES 12",
        "category": "Collecteur-regroupeur",
        "latitude": null,
        "longitude": null
    },
    {
        "siret": "84231765300017",
        "name": "ALPHA DEMOLITION 33",
        "category": "Producteur",
        "latitude": "44.904671",
        "longitude": "-0.246116"
    },
    {
        "siret": "39393608300020",
        "name": "SARL LAGARRIGUE",
        "category": "Producteur",
        "latitude": "44.032076",
        "longitude": "1.376455"
    },
    {
        "siret": "46420237300153",
        "name": "VEOLIA PROPRETE AQUITAINE",
        "category": "Installation de traitement",
        "latitude": "47.0708707",
        "longitude": "-0.9367894"
    },
    {
        "siret": "66735008600035",
        "name": "MAILLOT SAS",
        "category": "Installation de traitement",
        "latitude": "49.252051",
        "longitude": "1.180257"
    },
    {
        "siret": "78999935600056",
        "name": "VIAM",
        "category": "Transporteur",
        "latitude": "49.424385",
        "longitude": "1.106121"
    },
    {
        "siret": "78999935600049",
        "name": "VIAM",
        "category": "Collecteur-regroupeur",
        "latitude": "48.85448",
        "longitude": "-1.546447"
    },
    {
        "siret": "78999935600023",
        "name": "VIAM",
        "category": "Collecteur-regroupeur",
        "latitude": "48.425198",
        "longitude": "-1.380833"
    },
    {
        "siret": "78999935600064",
        "name": "VIAM",
        "category": "Collecteur-regroupeur",
        "latitude": "49.074057",
        "longitude": "0.583765"
    },
    {
        "siret": "51480457400036",
        "name": "BIOGAZ DE GAILLON",
        "category": "Installation de traitement",
        "latitude": "49.164579",
        "longitude": "1.350572"
    },
    {
        "siret": "50060625600021",
        "name": "ATHALYS",
        "category": "Installation de traitement",
        "latitude": "49.416059",
        "longitude": "1.107738"
    },
    {
        "siret": "42439454200015",
        "name": "AHC ASSAINISSEMENT HYGIENE ET CONFORT",
        "category": "Collecteur-regroupeur",
        "latitude": "48.943768",
        "longitude": "2.347058"
    },
    {
        "siret": "35270647700051",
        "name": "VANHEEDE ENVIRONNEMENT",
        "category": "Installation de traitement",
        "latitude": "50.52376",
        "longitude": "2.858048"
    },
    {
        "siret": "34340353102114",
        "name": "COLLECTES VALORISATION ENERGIE DECHETS - COVED",
        "category": "Installation de traitement",
        "latitude": "44.444146",
        "longitude": "4.811252"
    },
    {
        "siret": "47846802800020",
        "name": "TRANSDEV MOBILITES DU SAINT QUENTINOIS",
        "category": "Producteur",
        "latitude": "49.831799",
        "longitude": "3.306356"
    },
    {
        "siret": "48060408100020",
        "name": "LABOSPHERE",
        "category": "Producteur",
        "latitude": "49.43977",
        "longitude": "2.106395"
    },
    {
        "siret": "39128259700015",
        "name": "CHIMIREC DEVELOPPEMENT",
        "category": "Producteur",
        "latitude": "48.941615",
        "longitude": "2.420017"
    },
    {
        "siret": "34517948500031",
        "name": "CHIMIREC-PPM",
        "category": "Installation de traitement",
        "latitude": "47.118668",
        "longitude": "0.191298"
    },
    {
        "siret": "39933934000016",
        "name": "CHIMIREC-EST",
        "category": "Installation de traitement",
        "latitude": "48.565068",
        "longitude": "6.695127"
    },
    {
        "siret": "31018842000114",
        "name": "CHIMIREC",
        "category": "Installation de traitement",
        "latitude": "48.94309",
        "longitude": "2.419642"
    },
    {
        "siret": "31018842000031",
        "name": "CHIMIREC",
        "category": "Installation de traitement",
        "latitude": "48.320215",
        "longitude": "-1.189368"
    },
    {
        "siret": "31018842000098",
        "name": "CHIMIREC",
        "category": "Installation de traitement",
        "latitude": "48.104944",
        "longitude": "-4.028573"
    },
    {
        "siret": "33360111000013",
        "name": "CHIMIREC MALO",
        "category": "Installation de traitement",
        "latitude": "44.122675",
        "longitude": "4.832799"
    },
    {
        "siret": "33360111000021",
        "name": "CHIMIREC MALO",
        "category": "Installation de traitement",
        "latitude": "45.7705982",
        "longitude": "5.0269111"
    },
    {
        "siret": "39390306700014",
        "name": "CHIMIREC CENTRE EST",
        "category": "Installation de traitement",
        "latitude": "46.686839",
        "longitude": "5.50801"
    },
    {
        "siret": "39390306700089",
        "name": "CHIMIREC CENTRE EST",
        "category": "Installation de traitement",
        "latitude": "46.114876",
        "longitude": "4.942292"
    },
    {
        "siret": "33328490900020",
        "name": "CHIMIREC-VALRECOISE",
        "category": "Installation de traitement",
        "latitude": "49.500728",
        "longitude": "2.434968"
    },
    {
        "siret": "33328490900046",
        "name": "CHIMIREC-VALRECOISE",
        "category": "Installation de traitement",
        "latitude": "49.485188",
        "longitude": "0.218615"
    },
    {
        "siret": "38336924600046",
        "name": "CHIMIREC-SOCODELI",
        "category": "Installation de traitement",
        "latitude": "43.784198",
        "longitude": "4.635231"
    },
    {
        "siret": "38336924600020",
        "name": "CHIMIREC-SOCODELI",
        "category": "Installation de traitement",
        "latitude": "43.216273",
        "longitude": "2.33366"
    },
    {
        "siret": "40025889300017",
        "name": "CHIMIREC DELVERT",
        "category": "Installation de traitement",
        "latitude": "46.687629",
        "longitude": "0.375168"
    },
    {
        "siret": "41808924900027",
        "name": "CHIMIREC-NOREC",
        "category": "Installation de traitement",
        "latitude": "50.665965",
        "longitude": "2.260847"
    },
    {
        "siret": "45275129000019",
        "name": "CHIMIREC MASSIF-CENTRAL",
        "category": "Installation de traitement",
        "latitude": "44.537834",
        "longitude": "3.509573"
    },
    {
        "siret": "34445139800020",
        "name": "CHIMIREC DARGELOS",
        "category": "Installation de traitement",
        "latitude": "42.6301915",
        "longitude": "2.7640352"
    },
    {
        "siret": "34498486900026",
        "name": "APROCHIM",
        "category": "Installation de traitement",
        "latitude": "47.8712218",
        "longitude": "-0.5046341"
    },
    {
        "siret": "79345713600018",
        "name": "CHIMIREC CORSICA",
        "category": "Installation de traitement",
        "latitude": "42.457853",
        "longitude": "9.496495"
    },
    {
        "siret": "79897955500017",
        "name": "ECO-LOGISTIQUE REEMPLOI",
        "category": "Installation de traitement",
        "latitude": "48.044339",
        "longitude": "3.072817"
    },
    {
        "siret": "48803585800023",
        "name": "AGAINUS",
        "category": "Transporteur",
        "latitude": "48.044339",
        "longitude": "3.072817"
    },
    {
        "siret": "38182489500019",
        "name": "ETS PIERRE VOLLE",
        "category": "Installation de traitement",
        "latitude": "44.820586",
        "longitude": "4.855877"
    },
    {
        "siret": "43973805500029",
        "name": "CONSULTANT DECHETS SPECIAUX SERVICES",
        "category": "Installation de traitement",
        "latitude": "48.432721",
        "longitude": "1.710723"
    },
    {
        "siret": "39242361200010",
        "name": "ASTRHUL",
        "category": "Installation de traitement",
        "latitude": "47.320504",
        "longitude": "-1.162799"
    },
    {
        "siret": "39242361200028",
        "name": "ASTRHUL",
        "category": "Installation de traitement",
        "latitude": "48.555281",
        "longitude": "-3.878509"
    },
    {
        "siret": "49776352400038",
        "name": "SOLAIRGIES",
        "category": "Installation de traitement",
        "latitude": null,
        "longitude": null
    },
    {
        "siret": "41895342800012",
        "name": "ARETZIA",
        "category": "Installation de traitement",
        "latitude": "47.283836",
        "longitude": "-2.016025"
    },
    {
        "siret": "82103694400030",
        "name": "HLC33",
        "category": "Collecteur-regroupeur",
        "latitude": "44.834315",
        "longitude": "-0.768924"
    },
    {
        "siret": "45126196000038",
        "name": "CHAUDRONI MECANIQUE INDUST SCE - CMIS",
        "category": "Collecteur-regroupeur",
        "latitude": "49.243584",
        "longitude": "2.46478"
    },
    {
        "siret": "45126196000020",
        "name": "CHAUDRONI MECANIQUE INDUST SCE - CMIS",
        "category": "Collecteur-regroupeur",
        "latitude": "49.8183725",
        "longitude": "3.2984397"
    },
    {
        "siret": "49022412800010",
        "name": "AUDIGIER RECYCLAGE",
        "category": "Collecteur-regroupeur",
        "latitude": "44.58546",
        "longitude": "4.74426"
    },
    {
        "siret": "32903542200057",
        "name": "MBK INDUSTRIE",
        "category": "Producteur",
        "latitude": "45.7705982",
        "longitude": "5.0269111"
    },
    {
        "siret": "83111167900013",
        "name": "LE JARDIN DE DJENA",
        "category": "Collecteur-regroupeur",
        "latitude": "48.890145",
        "longitude": "2.355738"
    },
    {
        "siret": "84361538600011",
        "name": "ENTREPRISE DE VALORISATION ADAPTEE",
        "category": "Collecteur-regroupeur",
        "latitude": "43.550389",
        "longitude": "5.207279"
    },
    {
        "siret": "49874504100026",
        "name": "C.E.R.H.",
        "category": "Producteur",
        "latitude": "49.866007",
        "longitude": "3.326297"
    },
    {
        "siret": "43898583000019",
        "name": "BIONATIS",
        "category": "Producteur",
        "latitude": "45.719283",
        "longitude": "4.393838"
    },
    {
        "siret": "34804072600062",
        "name": "SOC FORCE VAR",
        "category": "Collecteur-regroupeur",
        "latitude": "43.470232",
        "longitude": "6.723944"
    },
    {
        "siret": "30998050600013",
        "name": "MECAJET",
        "category": "Producteur",
        "latitude": "50.099109",
        "longitude": "3.38393"
    },
    {
        "siret": "71708028700013",
        "name": "VOIRIN PERE ET FILS DE GESTION",
        "category": "Producteur",
        "latitude": "48.988627",
        "longitude": "3.367532"
    },
    {
        "siret": "84033997200019",
        "name": "DADIAG",
        "category": "Producteur",
        "latitude": "47.629725",
        "longitude": "7.02754"
    },
    {
        "siret": "00712006600027",
        "name": "SOCIETE LECLERC IMPRIMERIE",
        "category": "Producteur",
        "latitude": "50.118824",
        "longitude": "1.816927"
    },
    {
        "siret": "48047015200012",
        "name": "NORAUTO FRANCE",
        "category": "Producteur",
        "latitude": "50.582758",
        "longitude": "3.138725"
    },
    {
        "siret": "41518343300028",
        "name": "CENTRE LANDAIS DE TRANSIT DES DECHETS INDUSTRIELS",
        "category": "Installation de traitement",
        "latitude": "43.914143",
        "longitude": "-0.451132"
    },
    {
        "siret": "35401179300016",
        "name": "SCEA LA FOLIE BROUCHY",
        "category": "Producteur",
        "latitude": "49.722634",
        "longitude": "3.101111"
    },
    {
        "siret": "18170002200120",
        "name": "CHAMBRE DE COMMERCE ET D'INDUSTRIE",
        "category": "Installation de traitement",
        "latitude": "46.172438",
        "longitude": "-1.148954"
    },
    {
        "siret": "53807763700014",
        "name": "NIORT TERMINAL PROMOTION",
        "category": "Producteur",
        "latitude": "46.323109",
        "longitude": "-0.461416"
    },
    {
        "siret": "18170002200070",
        "name": "CHAMBRE DE COMMERCE ET D'INDUSTRIE",
        "category": "Producteur",
        "latitude": "46.174172",
        "longitude": "-1.19902"
    },
    {
        "siret": "75407186800014",
        "name": "A.J.T.P",
        "category": "Producteur",
        "latitude": "46.009959",
        "longitude": "-1.355013"
    },
    {
        "siret": "33913274800163",
        "name": "ALLIANCE PARTENAIRES GRAPHIQUES",
        "category": "Producteur",
        "latitude": "49.818795",
        "longitude": "3.296297"
    },
    {
        "siret": "37791706700342",
        "name": "EQIOM",
        "category": "Installation de traitement",
        "latitude": "48.544263",
        "longitude": "7.650267"
    },
    {
        "siret": "48222277500033",
        "name": "ENVIE 2E AQUITAINE",
        "category": "Collecteur-regroupeur",
        "latitude": "44.920625",
        "longitude": "-0.459161"
    },
    {
        "siret": "95651249500345",
        "name": "CALOR S A",
        "category": "Producteur",
        "latitude": "45.668522",
        "longitude": "4.969122"
    },
    {
        "siret": "34804072600054",
        "name": "SOC FORCE VAR",
        "category": "Collecteur-regroupeur",
        "latitude": "43.573213",
        "longitude": "6.941479"
    },
    {
        "siret": "45242788300015",
        "name": "AGRI PLEVY",
        "category": "Producteur",
        "latitude": "45.656663",
        "longitude": "4.422047"
    },
    {
        "siret": "78990938900049",
        "name": "MAT'ILD",
        "category": "Collecteur-regroupeur",
        "latitude": "43.468649",
        "longitude": "5.469841"
    },
    {
        "siret": "48047015201143",
        "name": "NORAUTO FRANCE",
        "category": "Producteur",
        "latitude": "48.5920327",
        "longitude": "7.6950163"
    },
    {
        "siret": "48047015200517",
        "name": "NORAUTO FRANCE",
        "category": "Producteur",
        "latitude": "50.410723",
        "longitude": "2.999272"
    },
    {
        "siret": "48047015201150",
        "name": "NORAUTO FRANCE",
        "category": "Producteur",
        "latitude": "50.740192",
        "longitude": "3.133299"
    },
    {
        "siret": "48047015201481",
        "name": "NORAUTO FRANCE",
        "category": "Producteur",
        "latitude": "51.013267",
        "longitude": "2.293361"
    },
    {
        "siret": "48047015201168",
        "name": "NORAUTO FRANCE",
        "category": "Producteur",
        "latitude": "50.682157",
        "longitude": "3.222418"
    },
    {
        "siret": "48047015202505",
        "name": "NORAUTO FRANCE",
        "category": "Producteur",
        "latitude": "50.377451",
        "longitude": "3.481023"
    },
    {
        "siret": "48047015201598",
        "name": "NORAUTO FRANCE",
        "category": "Producteur",
        "latitude": "50.254646",
        "longitude": "3.935825"
    },
    {
        "siret": "48047015200509",
        "name": "NORAUTO FRANCE",
        "category": "Producteur",
        "latitude": "50.948272",
        "longitude": "1.893436"
    },
    {
        "siret": "48047015202190",
        "name": "NORAUTO FRANCE",
        "category": "Producteur",
        "latitude": "48.911055",
        "longitude": "2.02966"
    },
    {
        "siret": "48047015202240",
        "name": "NORAUTO FRANCE",
        "category": "Producteur",
        "latitude": "49.521188",
        "longitude": "0.108828"
    },
    {
        "siret": "48047015201044",
        "name": "NORAUTO FRANCE",
        "category": "Producteur",
        "latitude": "48.792673",
        "longitude": "2.559183"
    },
    {
        "siret": "48047015200426",
        "name": "NORAUTO FRANCE",
        "category": "Producteur",
        "latitude": "49.903862",
        "longitude": "2.307227"
    },
    {
        "siret": "48047015200525",
        "name": "NORAUTO FRANCE",
        "category": "Producteur",
        "latitude": "50.460499",
        "longitude": "2.826223"
    },
    {
        "siret": "48047015200822",
        "name": "NORAUTO FRANCE",
        "category": "Producteur",
        "latitude": "47.905064",
        "longitude": "1.865058"
    },
    {
        "siret": "48047015200046",
        "name": "NORAUTO FRANCE",
        "category": "Producteur",
        "latitude": "43.291887",
        "longitude": "5.594332"
    },
    {
        "siret": "48047015200129",
        "name": "NORAUTO FRANCE",
        "category": "Producteur",
        "latitude": "49.166999",
        "longitude": "-0.297934"
    },
    {
        "siret": "48047015201820",
        "name": "NORAUTO FRANCE",
        "category": "Producteur",
        "latitude": "46.086897",
        "longitude": "4.063537"
    },
    {
        "siret": "48047015200210",
        "name": "NORAUTO FRANCE",
        "category": "Producteur",
        "latitude": "47.310817",
        "longitude": "5.100552"
    },
    {
        "siret": "48047015201028",
        "name": "NORAUTO FRANCE",
        "category": "Producteur",
        "latitude": "48.756329",
        "longitude": "2.371236"
    },
    {
        "siret": "48047015200335",
        "name": "NORAUTO FRANCE",
        "category": "Producteur",
        "latitude": "47.335121",
        "longitude": "0.683005"
    },
    {
        "siret": "48047015201531",
        "name": "NORAUTO FRANCE",
        "category": "Producteur",
        "latitude": null,
        "longitude": null
    },
    {
        "siret": "48047015201192",
        "name": "NORAUTO FRANCE",
        "category": "Producteur",
        "latitude": "48.854428",
        "longitude": "2.520885"
    },
    {
        "siret": "48047015200228",
        "name": "NORAUTO FRANCE",
        "category": "Producteur",
        "latitude": "47.283199",
        "longitude": "5.019881"
    },
    {
        "siret": "48047015200673",
        "name": "NORAUTO FRANCE",
        "category": "Producteur",
        "latitude": "49.53383",
        "longitude": "0.969198"
    },
    {
        "siret": "48047015201127",
        "name": "NORAUTO FRANCE",
        "category": "Producteur",
        "latitude": "50.616781",
        "longitude": "3.134542"
    },
    {
        "siret": "48047015200947",
        "name": "NORAUTO FRANCE",
        "category": "Producteur",
        "latitude": null,
        "longitude": null
    },
    {
        "siret": "48047015201655",
        "name": "NORAUTO FRANCE",
        "category": "Producteur",
        "latitude": "48.9958133",
        "longitude": "2.2216232"
    },
    {
        "siret": "48047015200541",
        "name": "NORAUTO FRANCE",
        "category": "Producteur",
        "latitude": "49.3291085",
        "longitude": "1.0971105"
    },
    {
        "siret": "48047015200434",
        "name": "NORAUTO FRANCE",
        "category": "Producteur",
        "latitude": null,
        "longitude": null
    },
    {
        "siret": "48047015200442",
        "name": "NORAUTO FRANCE",
        "category": "Producteur",
        "latitude": "43.989591",
        "longitude": "4.891581"
    },
    {
        "siret": "48047015202216",
        "name": "NORAUTO FRANCE",
        "category": "Producteur",
        "latitude": "48.587801",
        "longitude": "7.699136"
    },
    {
        "siret": "48047015200095",
        "name": "NORAUTO FRANCE",
        "category": "Producteur",
        "latitude": "43.532058",
        "longitude": "1.398682"
    },
    {
        "siret": "48047015202588",
        "name": "NORAUTO FRANCE",
        "category": "Producteur",
        "latitude": "50.4131763",
        "longitude": "2.9781186"
    },
    {
        "siret": "48047015200632",
        "name": "NORAUTO FRANCE",
        "category": "Producteur",
        "latitude": "50.524599",
        "longitude": "2.629919"
    },
    {
        "siret": "48047015202703",
        "name": "NORAUTO FRANCE",
        "category": "Producteur",
        "latitude": "49.931656",
        "longitude": "1.093236"
    },
    {
        "siret": "48047015201572",
        "name": "NORAUTO FRANCE",
        "category": "Producteur",
        "latitude": "45.157361",
        "longitude": "5.725517"
    },
    {
        "siret": "48047015200475",
        "name": "NORAUTO FRANCE",
        "category": "Producteur",
        "latitude": "47.981126",
        "longitude": "0.212295"
    },
    {
        "siret": "48047015201614",
        "name": "NORAUTO FRANCE",
        "category": "Producteur",
        "latitude": "44.883176",
        "longitude": "-0.571574"
    },
    {
        "siret": "48047015201002",
        "name": "NORAUTO FRANCE",
        "category": "Producteur",
        "latitude": "50.734497",
        "longitude": "1.674426"
    },
    {
        "siret": "48047015201432",
        "name": "NORAUTO FRANCE",
        "category": "Producteur",
        "latitude": "48.078227",
        "longitude": "-0.800048"
    },
    {
        "siret": "48047015200293",
        "name": "NORAUTO FRANCE",
        "category": "Producteur",
        "latitude": "48.626203",
        "longitude": "-1.993654"
    },
    {
        "siret": "48047015200608",
        "name": "NORAUTO FRANCE",
        "category": "Producteur",
        "latitude": "47.193407",
        "longitude": "-1.576013"
    },
    {
        "siret": "48047015201564",
        "name": "NORAUTO FRANCE",
        "category": "Producteur",
        "latitude": "45.215958",
        "longitude": "5.683174"
    },
    {
        "siret": "48047015200236",
        "name": "NORAUTO FRANCE",
        "category": "Producteur",
        "latitude": "47.2838",
        "longitude": "5.99451"
    },
    {
        "siret": "48047015201374",
        "name": "NORAUTO FRANCE",
        "category": "Producteur",
        "latitude": "47.770163",
        "longitude": "7.388347"
    },
    {
        "siret": "48047015201515",
        "name": "NORAUTO FRANCE",
        "category": "Producteur",
        "latitude": "50.4131763",
        "longitude": "2.9781186"
    },
    {
        "siret": "48047015200111",
        "name": "NORAUTO FRANCE",
        "category": "Producteur",
        "latitude": "46.203413",
        "longitude": "5.242437"
    },
    {
        "siret": "48047015200467",
        "name": "NORAUTO FRANCE",
        "category": "Producteur",
        "latitude": "48.403032",
        "longitude": "-4.467229"
    },
    {
        "siret": "48047015200160",
        "name": "NORAUTO FRANCE",
        "category": "Producteur",
        "latitude": "47.091814",
        "longitude": "2.383926"
    },
    {
        "siret": "48047015201424",
        "name": "NORAUTO FRANCE",
        "category": "Producteur",
        "latitude": "45.757089",
        "longitude": "3.127385"
    },
    {
        "siret": "41196288900027",
        "name": "CENTRE AUTO DE LESCAR PAU CAPAULES",
        "category": "Producteur",
        "latitude": "43.341032",
        "longitude": "-0.469452"
    },
    {
        "siret": "48047015200301",
        "name": "NORAUTO FRANCE",
        "category": "Producteur",
        "latitude": "49.216716",
        "longitude": "4.058236"
    },
    {
        "siret": "48047015201671",
        "name": "NORAUTO FRANCE",
        "category": "Producteur",
        "latitude": "48.521278",
        "longitude": "7.692979"
    },
    {
        "siret": "48047015201416",
        "name": "NORAUTO FRANCE",
        "category": "Producteur",
        "latitude": "45.570489",
        "longitude": "5.939623"
    },
    {
        "siret": "48047015200806",
        "name": "NORAUTO FRANCE",
        "category": "Producteur",
        "latitude": "48.041806",
        "longitude": "0.171799"
    },
    {
        "siret": "48047015201317",
        "name": "NORAUTO FRANCE",
        "category": "Producteur",
        "latitude": "43.8480771",
        "longitude": "4.3496486"
    },
    {
        "siret": "48047015200863",
        "name": "NORAUTO FRANCE",
        "category": "Producteur",
        "latitude": "48.585456",
        "longitude": "2.302865"
    },
    {
        "siret": "48047015200830",
        "name": "NORAUTO FRANCE",
        "category": "Producteur",
        "latitude": "47.225036",
        "longitude": "-1.625598"
    },
    {
        "siret": "48047015200087",
        "name": "NORAUTO FRANCE",
        "category": "Producteur",
        "latitude": "43.630542",
        "longitude": "1.482484"
    },
    {
        "siret": "48047015200202",
        "name": "NORAUTO FRANCE",
        "category": "Producteur",
        "latitude": "43.414138",
        "longitude": "5.033452"
    },
    {
        "siret": "48047015200731",
        "name": "NORAUTO FRANCE",
        "category": "Producteur",
        "latitude": "49.006869",
        "longitude": "2.352133"
    },
    {
        "siret": "48047015201523",
        "name": "NORAUTO FRANCE",
        "category": "Producteur",
        "latitude": "45.717171",
        "longitude": "4.923336"
    },
    {
        "siret": "48047015200137",
        "name": "NORAUTO FRANCE",
        "category": "Producteur",
        "latitude": "49.737361",
        "longitude": "4.743125"
    },
    {
        "siret": "48047015200962",
        "name": "NORAUTO FRANCE",
        "category": "Producteur",
        "latitude": "48.828459",
        "longitude": "1.963075"
    },
    {
        "siret": "48047015201093",
        "name": "NORAUTO FRANCE",
        "category": "Producteur",
        "latitude": "43.569993",
        "longitude": "3.843394"
    },
    {
        "siret": "48047015201085",
        "name": "NORAUTO FRANCE",
        "category": "Producteur",
        "latitude": "43.817641",
        "longitude": "4.347945"
    },
    {
        "siret": "48047015200020",
        "name": "NORAUTO FRANCE",
        "category": "Producteur",
        "latitude": "43.556542",
        "longitude": "6.952928"
    },
    {
        "siret": "48047015200764",
        "name": "NORAUTO FRANCE",
        "category": "Producteur",
        "latitude": "48.991545",
        "longitude": "2.199022"
    },
    {
        "siret": "48047015200814",
        "name": "NORAUTO FRANCE",
        "category": "Producteur",
        "latitude": "47.877183",
        "longitude": "1.910886"
    },
    {
        "siret": "48047015200574",
        "name": "NORAUTO FRANCE",
        "category": "Producteur",
        "latitude": "48.137406",
        "longitude": "-1.687165"
    },
    {
        "siret": "48047015201036",
        "name": "NORAUTO FRANCE",
        "category": "Producteur",
        "latitude": "48.780627",
        "longitude": "2.438603"
    },
    {
        "siret": "53401238000026",
        "name": "CAVITROLLES",
        "category": "Producteur",
        "latitude": "43.475373",
        "longitude": "5.22581"
    },
    {
        "siret": "48047015201747",
        "name": "NORAUTO FRANCE",
        "category": "Producteur",
        "latitude": "42.684191",
        "longitude": "2.905292"
    },
    {
        "siret": "48047015201630",
        "name": "NORAUTO FRANCE",
        "category": "Producteur",
        "latitude": "44.841199",
        "longitude": "-0.667027"
    },
    {
        "siret": "48047015200954",
        "name": "NORAUTO FRANCE",
        "category": "Producteur",
        "latitude": "48.762262",
        "longitude": "1.921126"
    },